City_ID,City,Lat,Lng,Max Temp,Humidity,Cloudiness,Wind Speed,Country,Date
0,mugumu,-1.85,34.7,16.51,79,59,2.17,TZ,1698722037
1,tenno,39.9,139.9667,16.01,63,48,1.43,JP,1698722037
2,betio village,1.358,172.9211,30.02,73,96,1.45,KI,1698722037
3,luderitz,-26.6481,15.1594,16.28,47,2,2.56,NA,1698721425
4,waitangi,-43.9535,-176.5597,14.34,83,100,5.81,NZ,1698721465
5,south hedland,-20.4089,118.5983,29.96,70,11,5.14,AU,1698722038
6,enewetak,11.3474,162.3373,28.33,80,100,7.67,MH,1698721487
7,ghat,24.9647,10.1728,22.15,21,0,1.22,LY,1698722038
8,longyearbyen,78.2186,15.6401,0.91,75,75,7.2,SJ,1698721471
9,puerto natales,-51.7236,-72.4875,0.45,77,1,1.75,CL,1698721393
10,bilibino,68.0546,166.4372,-15.73,78,70,1.25,RU,1698721471
11,nagqu,31.5,92.0,-3.66,64,47,2.65,CN,1698722038
12,point pedro,9.8167,80.2333,28.7,68,65,4.59,LK,1698722038
13,motueka,-41.1333,173.0167,20.6,55,18,3.31,NZ,1698722038
14,edinburgh of the seven seas,-37.0676,-12.3116,13.83,95,100,12.36,SH,1698722039
15,shippensburg,40.0507,-77.5203,10.02,78,96,0.89,US,1698722039
16,prakhon chai,14.6059,103.1208,26.55,79,86,5.8,TH,1698722039
17,blackmans bay,-43.0167,147.3167,16.07,49,81,1.34,AU,1698721466
18,adamstown,-25.066,-130.1015,23.0,76,100,3.06,PN,1698721460
19,qaqortoq,60.7167,-46.0333,5.61,61,99,11.73,GL,1698721416
20,aswan,24.0934,32.907,25.66,53,0,1.72,EG,1698722022
21,college,64.8569,-147.8028,-0.01,86,75,0.0,US,1698721201
22,west island,-12.1568,96.8225,27.99,78,75,6.69,CC,1698721409
23,udachny,66.4167,112.4,-20.09,97,100,2.72,RU,1698721468
24,iqaluit,63.7506,-68.5145,-12.15,78,75,7.72,CA,1698721474
25,port-aux-francais,-49.35,70.2167,3.8,89,100,17.02,TF,1698721555
26,hithadhoo,-0.6,73.0833,26.99,80,100,4.88,MV,1698721477
27,walvis bay,-22.9575,14.5053,13.71,89,0,2.03,NA,1698722039
28,narrabri,-30.3167,149.7833,34.18,18,73,1.79,AU,1698722040
29,ha giang,22.8333,104.9833,27.19,64,100,0.93,VN,1698722040
30,bredasdorp,-34.5322,20.0403,13.16,80,0,5.24,ZA,1698721458
31,sidney,-33.8679,151.2073,32.56,17,0,3.58,AU,1698721996
32,jamestown,42.097,-79.2353,3.73,80,100,3.6,US,1698721341
33,bairnsdale,-37.8333,147.6167,16.7,54,75,4.02,AU,1698722040
34,valera,9.3178,-70.6036,22.04,93,64,2.05,VE,1698722040
35,isafjordur,66.0755,-23.124,1.52,72,38,1.69,IS,1698721482
36,georgetown,5.4112,100.3354,31.96,66,20,1.54,MY,1698721924
37,alofi,-19.0595,-169.9187,25.94,69,75,6.17,NU,1698721536
38,la carolina,38.2756,-3.6153,9.51,68,100,1.97,ES,1698722040
39,santa luzia,-19.7697,-43.8514,24.5,80,100,1.52,BR,1698722040
40,lebu,-37.6167,-73.65,7.36,82,94,3.91,CL,1698721475
41,margaret river,-33.95,115.0667,19.7,40,61,0.37,AU,1698721489
42,arraial do cabo,-22.9661,-42.0278,24.17,91,100,2.41,BR,1698722038
43,san pedro pochutla,15.7333,-96.4667,24.86,84,94,1.25,MX,1698721549
44,el bauga,18.262,33.9081,25.38,62,22,3.23,SD,1698722041
45,codrington,-38.2667,141.9667,13.95,50,81,7.04,AU,1698721474
46,bankim,6.083,11.4905,20.06,89,97,0.47,CM,1698721883
47,port hedland,-20.3167,118.5667,30.03,70,7,5.14,AU,1698722041
48,swakopmund,-22.6833,14.5333,13.93,89,0,1.86,NA,1698722042
49,krasnopavlivka,49.1372,36.3272,10.33,87,55,4.24,UA,1698722042
50,yellowknife,62.456,-114.3525,-2.55,99,75,2.06,CA,1698721475
51,ust-nera,64.5667,143.2,-11.93,98,100,2.31,RU,1698721483
52,invercargill,-46.4,168.35,15.01,78,100,2.24,NZ,1698721467
53,cidreira,-30.1811,-50.2056,19.44,93,100,3.68,BR,1698721879
54,port lincoln,-34.7333,135.8667,15.9,46,30,5.09,AU,1698721472
55,duba,27.3513,35.6901,26.33,58,0,2.61,SA,1698722043
56,sao jose da coroa grande,-8.8978,-35.1478,24.21,73,71,2.88,BR,1698721539
57,ushuaia,-54.8,-68.3,2.81,70,75,6.69,AR,1698721468
58,pariaman,-0.619,100.12,27.03,77,95,1.84,ID,1698722044
59,nemuro,43.3236,145.575,11.85,72,14,5.62,JP,1698721528
60,grytviken,-54.2811,-36.5092,2.74,82,88,2.98,GS,1698722044
61,kruisfontein,-34.0033,24.7314,9.92,91,0,2.24,ZA,1698721549
62,stanley,54.868,-1.6985,7.09,95,75,2.57,GB,1698721459
63,la punta,-33.1837,-66.3127,11.47,42,94,5.87,AR,1698722044
64,rongelap,11.1635,166.8941,28.58,78,87,9.18,MH,1698721487
65,minas de marcona,-15.2119,-75.1103,14.81,84,70,5.31,PE,1698722045
66,belmonte,-15.8631,-38.8828,23.61,75,92,3.27,BR,1698721529
67,kushiro,42.975,144.3747,12.59,75,95,2.29,JP,1698721754
68,geraldton,-28.7667,114.6,31.23,16,0,8.23,AU,1698721356
69,wanning,18.8003,110.3967,26.9,77,86,6.11,CN,1698721786
70,talodi,10.6325,30.3797,24.17,80,81,1.81,SD,1698722046
71,zabol,32.25,67.25,13.79,32,6,1.13,AF,1698721979
72,princeville,45.7668,-61.2985,4.22,96,100,2.57,CA,1698722046
73,tidjikja,18.5564,-11.4271,27.97,13,15,4.35,MR,1698722047
74,pikalevo,59.5183,34.1664,-7.38,100,65,0.73,RU,1698722047
75,bethel,41.3712,-73.414,9.45,77,100,2.57,US,1698721472
76,huoqiu chengguanzhen,32.3547,116.2939,26.26,37,0,2.46,CN,1698722047
77,aoulef,26.9667,1.0833,28.07,15,13,3.82,DZ,1698722047
78,olonkinbyen,70.9221,-8.7187,1.89,75,100,5.07,SJ,1698722048
79,tiksi,71.6872,128.8694,-20.28,100,85,1.02,RU,1698721484
80,ponnani,10.767,75.9252,24.62,85,100,2.4,IN,1698722048
81,tangalle,6.024,80.7911,26.09,76,83,0.56,LK,1698722048
82,puerto ayora,-0.7393,-90.3518,23.64,91,100,1.34,EC,1698721461
83,aydarken,39.9443,71.3429,10.17,51,100,1.09,KG,1698722049
84,bathsheba,13.2167,-59.5167,28.34,83,20,4.63,BB,1698722049
85,olinda,-8.0089,-34.8553,25.85,73,40,5.14,BR,1698722049
86,pirallahi,40.4723,50.333,14.08,74,50,5.38,AZ,1698722049
87,kodiak,57.79,-152.4072,7.18,96,100,4.7,US,1698721325
88,dunedin,-45.8742,170.5036,15.45,75,100,3.13,NZ,1698721356
89,wailua homesteads,22.0669,-159.378,26.44,75,75,3.6,US,1698721464
90,new norfolk,-42.7826,147.0587,16.72,44,92,5.43,AU,1698721460
91,dudinka,69.4058,86.1778,-16.32,97,98,0.89,RU,1698721463
92,bereznik,62.8551,42.7072,-5.96,91,84,1.14,RU,1698722050
93,yuzhno-kurilsk,44.0306,145.8556,11.32,81,21,5.15,RU,1698721518
94,papatowai,-46.5619,169.4708,14.9,66,100,2.51,NZ,1698721461
95,cambria,35.5641,-121.0808,17.21,38,0,0.89,US,1698722051
96,pathein,16.7833,94.7333,27.4,79,98,5.08,MM,1698722051
97,camana,-16.6228,-72.7111,18.94,89,59,4.35,PE,1698722051
98,kirakira,-10.4544,161.9205,29.24,75,37,4.79,SB,1698722026
99,lepsy,46.235,78.9456,16.73,52,100,9.11,KZ,1698722051
100,touros,-5.1989,-35.4608,25.26,72,48,5.08,BR,1698721532
101,okhotsk,59.3833,143.3,-0.54,95,100,4.96,RU,1698721496
102,puerto bolivar,-3.2667,-79.9833,23.69,87,100,2.41,EC,1698722052
103,karlskrona,56.1616,15.5866,6.25,94,99,2.82,SE,1698722052
104,fort mcmurray,56.7268,-111.381,-3.23,68,100,2.06,CA,1698721207
105,puerto baquerizo moreno,-0.9,-89.6,23.26,81,100,4.08,EC,1698722052
106,hermanus,-34.4187,19.2345,13.37,81,26,7.07,ZA,1698721383
107,fasa,28.9383,53.6482,13.58,54,40,3.09,IR,1698722052
108,chibougamau,49.9168,-74.3659,-6.21,86,40,2.57,CA,1698721470
109,durango,24.8333,-104.8333,10.55,89,94,2.24,MX,1698721789
110,aasiaat,68.7098,-52.8699,-7.8,83,39,5.5,GL,1698721400
111,haiku-pauwela,20.9219,-156.3051,26.13,76,20,6.69,US,1698721488
112,vila do maio,15.1333,-23.2167,25.44,74,44,3.2,CV,1698722053
113,utrik,11.2278,169.8474,28.21,79,100,7.97,MH,1698721390
114,vila franca do campo,37.7167,-25.4333,19.23,99,67,4.63,PT,1698721545
115,vilyuchinsk,52.9306,158.4028,7.15,58,16,4.41,RU,1698721391
116,albany,42.6001,-73.9662,5.85,82,100,3.74,US,1698721293
117,beledweyne,4.7358,45.2036,25.22,84,13,2.59,SO,1698722054
118,susuman,62.7833,148.1667,-13.34,94,82,0.45,RU,1698721439
119,douma,33.5718,36.4027,16.69,46,100,1.01,SY,1698722054
120,lorengau,-2.0226,147.2712,28.41,74,81,4.23,PG,1698722054
121,den burg,53.0542,4.7972,11.1,94,75,5.14,NL,1698722054
122,whitehorse,60.7161,-135.0538,1.43,93,100,2.57,CA,1698721469
123,klaksvik,62.2266,-6.589,3.51,58,86,8.08,FO,1698721460
124,la passe,45.5549,-0.8967,15.55,83,60,10.78,FR,1698722018
125,xining,36.6167,101.7667,9.99,26,0,0.37,CN,1698721496
126,lichinga,-13.3128,35.2406,20.05,77,100,5.14,MZ,1698722055
127,port mathurin,-19.6833,63.4167,24.55,80,38,8.69,MU,1698721480
128,mount gambier,-37.8333,140.7667,14.3,46,82,4.21,AU,1698721543
129,akjoujt,19.6969,-14.4164,27.76,17,5,3.27,MR,1698722055
130,lihue,21.9789,-159.3672,25.76,83,83,2.51,US,1698721422
131,puerto rico,-26.796,-55.024,18.86,99,60,0.72,AR,1698722055
132,punta arenas,-53.15,-70.9167,3.06,60,0,4.63,CL,1698721376
133,banda aceh,5.5577,95.3222,28.47,71,94,0.73,ID,1698721405
134,hawaiian paradise park,19.5933,-154.9731,26.04,88,100,3.09,US,1698721393
135,el rosario,24.2556,-107.1828,23.0,84,0,2.77,MX,1698722056
136,port alfred,-33.5906,26.891,14.3,80,21,6.8,ZA,1698721483
137,fortuna,40.5982,-124.1573,9.51,75,0,0.0,US,1698721431
138,thompson,55.7435,-97.8558,-6.91,79,100,2.57,CA,1698721479
139,asan-maina village,13.4722,144.7165,31.39,78,75,6.17,GU,1698722056
140,anadyr,64.75,177.4833,1.67,93,40,3.0,RU,1698721496
141,weno,7.4515,151.8468,30.97,74,75,2.06,FM,1698722057
142,kimberley,-28.7323,24.7623,7.83,87,0,1.54,ZA,1698722057
143,gazojak,41.1875,61.4036,10.5,81,0,4.09,TM,1698722057
144,bandarbeyla,9.4942,50.8122,26.34,83,99,5.55,SO,1698721460
145,monrovia,6.3005,-10.7969,25.56,87,6,2.57,LR,1698721235
146,fort bragg,35.139,-79.006,21.91,75,0,2.06,US,1698721359
147,riverton,40.5219,-111.9391,3.58,58,0,1.54,US,1698721808
148,lincoln city,44.9582,-124.0179,11.5,73,3,2.69,US,1698722058
149,atar,20.5169,-13.0499,28.22,18,14,1.54,MR,1698722058
150,sitka,57.0531,-135.33,6.05,90,100,1.86,US,1698721267
151,khorugh,37.4897,71.553,9.38,57,17,1.19,TJ,1698722058
152,basco,20.4487,121.9702,27.02,71,78,9.92,PH,1698722058
153,revda,56.801,59.9303,-4.96,95,95,1.02,RU,1698722059
154,beau vallon,-20.4189,57.6953,26.23,88,40,1.03,MU,1698721515
155,san patricio,28.017,-97.5169,8.43,72,100,6.04,US,1698721476
156,celestun,20.8667,-90.4,25.55,80,3,4.99,MX,1698722059
157,chesma,53.8111,60.6533,-3.85,90,37,2.43,RU,1698722059
158,illizi,26.4833,8.4667,19.89,18,0,3.76,DZ,1698721272
159,tazovsky,67.4667,78.7,-17.06,97,34,2.55,RU,1698722059
160,iskateley,67.6803,53.1512,-10.55,97,89,2.68,RU,1698721541
161,ancud,-41.8697,-73.8203,4.87,89,11,2.74,CL,1698721472
162,geiro,-6.15,36.8667,17.58,94,99,2.3,TZ,1698722060
163,laguna,38.421,-121.4238,16.14,50,0,0.0,US,1698721225
164,pisco,-13.7,-76.2167,19.45,82,15,7.2,PE,1698721411
165,zaozersk,69.4005,32.4476,-6.15,95,100,3.04,RU,1698721483
166,santana,-0.0583,-51.1817,28.1,74,0,3.09,BR,1698722060
167,miracema do tocantins,-9.5618,-48.3967,27.75,34,24,1.31,BR,1698722060
168,potam,27.6,-110.3833,25.37,46,0,5.95,MX,1698722061
169,ribeira grande,38.5167,-28.7,19.87,84,41,6.71,PT,1698722061
170,nar'yan-mar,67.6713,53.087,-10.5,97,88,2.68,RU,1698721517
171,atafu village,-8.5421,-172.5159,29.14,73,26,6.45,TK,1698721501
172,vorgashor,67.5833,63.95,-10.12,95,100,4.27,RU,1698722061
173,east london,-33.0153,27.9116,13.09,87,24,4.29,ZA,1698722061
174,vanino,49.0869,140.2543,7.18,38,88,2.47,RU,1698722061
175,caleta de carquin,-11.0925,-77.6267,19.53,88,99,4.1,PE,1698722062
176,bulungu,-4.55,18.6,20.75,98,100,1.08,CD,1698722062
177,mazagao,-0.115,-51.2894,28.03,84,2,1.79,BR,1698722062
178,ola,59.5833,151.2833,0.08,65,22,2.48,RU,1698721518
179,kalifornsky,60.4183,-151.29,5.19,76,0,1.54,US,1698722062
180,el khroub,36.2633,6.6936,14.49,67,40,2.06,DZ,1698722063
181,verkhnevilyuysk,63.4453,120.3167,-11.34,91,84,0.36,RU,1698722063
182,saipan,15.1355,145.701,31.39,74,75,6.69,MP,1698721470
183,borgo,46.0514,11.4544,15.34,94,96,1.96,IT,1698721934
184,bakanas,44.8081,76.2772,15.3,59,100,10.51,KZ,1698722064
185,tura,25.5198,90.2201,25.37,68,64,0.51,IN,1698721477
186,gorontalo,0.5412,123.0595,33.34,49,50,3.97,ID,1698722064
187,neryungri,56.6709,124.6491,-14.2,85,100,1.01,RU,1698722064
188,queenstown,-31.8976,26.8753,6.18,83,48,1.03,ZA,1698721987
189,mana,5.6592,-53.7767,26.56,86,8,4.37,GF,1698722065
190,muana,-1.5283,-49.2167,25.66,80,3,2.05,BR,1698722027
191,carnarvon,-24.8667,113.6333,26.51,46,0,4.24,AU,1698721434
192,gualeguay,-33.1416,-59.3097,11.45,82,31,3.14,AR,1698722065
193,sarmiento,-45.5882,-69.07,5.49,54,62,5.88,AR,1698722058
194,ulladulla,-35.35,150.4667,24.87,37,0,6.52,AU,1698721553
195,prince albert,53.2001,-105.7677,-11.03,79,0,4.12,CA,1698722066
196,verkhneural'sk,53.8769,59.2106,-2.19,89,99,3.71,RU,1698722059
197,nema,57.5067,50.5011,-3.75,97,99,2.82,RU,1698721521
198,rey bouba,8.6724,14.1786,23.64,85,91,0.71,CM,1698722066
199,petropavlovsk-kamchatsky,53.0452,158.6483,6.33,62,0,5.36,RU,1698721841
200,kingsville,27.5159,-97.8561,8.1,85,100,4.12,US,1698722067
201,badger,64.8,-147.5333,-0.05,91,75,0.0,US,1698721476
202,isiro,2.7739,27.616,19.23,98,100,1.26,CD,1698722067
203,hamilton,39.1834,-84.5333,4.11,81,100,3.6,US,1698721828
204,saint-joseph,-21.3667,55.6167,26.21,73,11,3.67,RE,1698722068
205,gadzhiyevo,69.2551,33.3362,-5.67,93,100,5.06,RU,1698721490
206,talnakh,69.4865,88.3972,-16.55,96,100,2.12,RU,1698722068
207,middelburg,-25.7751,29.4648,6.97,87,100,4.37,ZA,1698722068
208,charlottetown,46.2352,-63.1267,2.16,98,100,0.89,CA,1698722068
209,remire-montjoly,4.9167,-52.2667,27.02,94,75,0.0,GF,1698722069
210,poronaysk,49.2167,143.1167,11.04,48,12,4.63,RU,1698721551
211,coari,-4.085,-63.1414,27.9,62,60,2.33,BR,1698722069
212,vidigueira,38.1845,-7.7447,11.23,75,100,1.4,PT,1698722069
213,palmerston,-12.486,130.9833,34.38,62,75,1.54,AU,1698722070
214,las heras,-46.5419,-68.9359,4.25,41,58,4.31,AR,1698721549
215,avarua,-21.2078,-159.775,24.03,69,75,5.66,CK,1698722070
216,newnham,-41.3833,147.1333,16.53,36,40,6.69,AU,1698722070
217,ilagan,17.1485,121.8892,28.72,68,74,2.35,PH,1698722070
218,mejit,10.2753,170.8646,28.23,79,98,8.56,MH,1698721556
219,vadso,70.0744,29.7487,0.09,80,75,4.12,NO,1698721552
220,gisborne,-38.6533,178.0042,16.0,97,100,5.13,NZ,1698721554
221,nambucca heads,-30.65,153.0,35.09,69,71,3.96,AU,1698722071
222,la ronge,55.1001,-105.2842,-10.86,79,0,1.54,CA,1698721540
223,ilulissat,69.2167,-51.1,2.01,51,7,7.2,GL,1698722071
224,port elizabeth,-33.918,25.5701,15.16,83,0,5.14,ZA,1698721216
225,aktau,43.65,51.2,10.32,70,0,4.19,KZ,1698722072
226,devils lake,48.1128,-98.8651,-7.25,79,0,9.77,US,1698722072
227,bure,10.7,37.0667,13.0,95,96,1.11,ET,1698722072
228,westport,41.1415,-73.3579,11.29,80,100,3.6,US,1698721935
229,ovalle,-30.5983,-71.2003,17.23,55,86,0.82,CL,1698722073
230,tecozautla,20.5333,-99.6333,14.79,84,12,3.44,MX,1698722073
231,grand falls-windsor,48.9332,-55.6649,0.84,88,98,1.04,CA,1698722073
232,margate,51.3813,1.3862,8.16,96,7,3.36,GB,1698721274
233,quthing,-30.4,27.7003,7.9,63,100,1.11,LS,1698722073
234,kapuskasing,49.4169,-82.4331,-5.95,93,0,3.09,CA,1698721494
235,miyaly,48.8844,53.7836,3.66,81,94,3.78,KZ,1698722074
236,lagoa,39.05,-27.9833,18.98,82,17,12.09,PT,1698722074
237,kirishi,59.4471,32.0205,-3.87,99,49,0.37,RU,1698722074
238,kayangel,8.0823,134.7173,28.78,74,11,2.93,PW,1698722074
239,lompoc,34.6391,-120.4579,16.08,89,0,1.54,US,1698721239
240,al wafrah,28.6392,47.9306,21.93,60,35,1.75,KW,1698722074
241,borogontsy,62.6683,131.1683,-11.27,87,100,3.6,RU,1698722075
242,berbera,10.4396,45.0143,27.85,75,23,3.86,SO,1698722075
243,uturoa,-16.7333,-151.4333,26.41,80,10,8.07,PF,1698721496
244,qarauyl,48.9451,79.255,5.98,89,100,4.78,KZ,1698722076
245,kozhikode,11.25,75.7667,24.65,85,100,1.16,IN,1698722076
246,cockburn town,21.4612,-71.1419,28.7,80,97,5.89,TC,1698722076
247,katabu,-4.9333,122.5167,34.81,37,16,1.77,ID,1698722076
248,port saint john's,-31.6229,29.5448,14.86,87,100,3.06,ZA,1698721491
249,solnechnyy,50.7214,136.6319,0.57,51,73,2.28,RU,1698722077
250,juneau,58.3019,-134.4197,4.0,100,100,0.0,US,1698722077
251,akureyri,65.6835,-18.0878,-8.04,93,35,0.0,IS,1698721440
252,kone,-21.0595,164.8658,26.26,49,26,4.01,NC,1698721508
253,qarqaraly,49.4058,75.4742,3.67,91,100,4.45,KZ,1698722078
254,aykhal,66.0,111.5,-21.0,99,99,3.32,RU,1698721434
255,tolanaro,-25.0319,46.9987,24.04,88,75,0.0,MG,1698721478
256,newman,37.3138,-121.0208,16.27,38,5,0.89,US,1698721395
257,mo i rana,66.3128,14.1428,-8.15,87,2,2.57,NO,1698722078
258,skidel',53.5904,24.2478,7.08,100,86,2.0,BY,1698722078
259,dryden,49.7833,-92.7503,-3.84,93,75,2.06,CA,1698722079
260,kaga bandoro,6.9896,19.1874,22.05,81,97,1.13,CF,1698722079
261,corn island,12.1694,-83.0418,27.96,75,94,3.04,NI,1698722079
262,romorantin-lanthenay,47.4167,1.8333,10.81,93,75,3.6,FR,1698722079
263,tralee,52.2704,-9.7026,9.93,88,85,2.37,IE,1698722021
264,barra da estiva,-13.6261,-41.3269,20.96,45,98,1.87,BR,1698722079
265,tindouf,27.6711,-8.1474,21.25,30,0,2.57,DZ,1698722079
266,kingston,17.997,-76.7936,27.53,87,75,2.57,JM,1698721487
267,veydelevka,50.1521,38.4492,10.32,82,91,5.13,RU,1698722079
268,chonchi,-42.6128,-73.8092,2.84,96,4,0.58,CL,1698722019
269,pandan,14.0453,124.1694,27.44,87,100,7.03,PH,1698721546
270,saldanha,-33.0117,17.9442,16.03,68,2,4.59,ZA,1698722080
271,tazacorte,28.629,-17.9293,22.54,91,0,3.13,ES,1698722080
272,kijang,35.2442,129.2139,21.85,40,0,2.41,KR,1698722080
273,florida city,25.4479,-80.4792,26.12,90,0,1.91,US,1698722080
274,montrose,38.4166,-108.2673,-6.33,38,0,0.92,US,1698722080
275,natal,-5.795,-35.2094,24.36,83,40,1.54,BR,1698721887
276,kibondo,-3.5864,30.7203,17.04,77,100,0.96,TZ,1698722081
277,taltal,-25.4,-70.4833,17.83,72,9,1.47,CL,1698721492
278,manokwari,-0.8667,134.0833,27.62,77,98,2.83,ID,1698722066
279,paracuru,-3.41,-39.0306,26.73,75,46,4.11,BR,1698721507
280,waspan,14.7419,-83.9717,23.61,97,81,0.63,NI,1698722081
281,kimbe,-5.5502,150.1429,26.33,88,100,1.32,PG,1698722081
282,yeppoon,-23.1333,150.7333,32.88,53,0,6.8,AU,1698722078
283,sola,-13.8833,167.55,29.37,84,100,1.03,VU,1698722010
284,nhamunda,-2.1861,-56.7131,26.28,64,100,1.19,BR,1698722081
285,ambon,-3.6954,128.1814,31.08,70,40,2.57,ID,1698721845
286,happy valley-goose bay,53.3168,-60.3315,-2.83,59,20,5.14,CA,1698721540
287,paita,-5.0892,-81.1144,20.17,85,43,5.87,PE,1698721545
288,carutapera,-1.195,-46.02,26.05,82,55,2.98,BR,1698722082
289,gebeit,21.0667,36.3167,22.21,80,0,2.34,SD,1698722082
290,bratsk,56.1325,101.6142,-8.73,62,41,3.19,RU,1698722082
291,tianshui,34.5439,105.6897,15.62,60,14,2.51,CN,1698722082
292,mareeba,-17.0,145.4333,31.91,40,67,3.93,AU,1698722082
293,patterson,37.4716,-121.1297,17.66,56,6,2.07,US,1698722010
294,jalqani,12.4486,34.2186,23.77,83,86,0.81,SD,1698722082
295,nchelenge,-9.3451,28.734,23.58,72,100,2.31,ZM,1698722082
296,afaahiti,-17.75,-149.2833,26.93,82,39,8.74,PF,1698721497
297,palmer,42.1584,-72.3287,8.38,81,99,0.45,US,1698721525
298,wynyard,-41.0,145.7167,14.43,45,77,6.12,AU,1698722083
299,cabo san lucas,22.8909,-109.9124,26.53,80,37,0.89,MX,1698721328
300,chimbarongo,-34.7,-71.05,11.51,89,100,0.88,CL,1698722083
301,klyuchi,52.2667,79.1667,5.76,96,100,2.51,RU,1698722083
302,saint-philippe,-21.3585,55.7679,24.77,77,16,4.3,RE,1698721489
303,pribram,49.6899,14.0104,12.99,100,100,7.03,CZ,1698722083
304,xai-xai,-25.0519,33.6442,17.58,85,100,4.35,MZ,1698722083
305,hammerfest,70.6634,23.6821,2.25,80,40,5.14,NO,1698722084
306,tsiombe,-25.3,45.4833,21.53,82,43,4.21,MG,1698721544
307,mapleton,40.1302,-111.5785,3.95,54,0,3.09,US,1698722084
308,ocean shores,46.9737,-124.1563,10.01,78,0,3.09,US,1698721841
309,boguchany,58.3814,97.4531,-11.19,87,6,1.79,RU,1698722061
310,marsa alam,25.0757,34.8918,25.41,67,0,2.16,EG,1698722084
311,ruston,32.5232,-92.6379,6.99,100,20,1.54,US,1698721997
312,guerrero negro,27.9769,-114.0611,21.79,44,0,2.65,MX,1698722084
313,micheweni,-4.9667,39.8333,25.01,87,99,3.22,TZ,1698722085
314,constantia,44.1833,28.65,11.5,83,2,3.35,RO,1698722018
315,chake chake,-5.2459,39.7666,24.08,90,99,2.89,TZ,1698722085
316,thohoyandou,-22.9456,30.485,10.73,69,100,1.8,ZA,1698722085
317,fale old settlement,-9.3852,-171.2468,28.2,79,100,7.0,TK,1698721488
318,lerwick,60.1545,-1.1494,7.0,57,28,8.77,GB,1698721495
319,renfrew,55.872,-4.3925,6.38,81,100,4.12,GB,1698721867
320,rawah,34.4816,41.9093,23.13,36,100,1.56,IQ,1698722085
321,al ghayzah,16.2079,52.176,25.76,71,90,2.31,YE,1698722085
322,aral,40.5156,81.2636,15.9,22,100,0.87,CN,1698721518
323,taza,34.25,-3.75,15.95,89,100,2.09,MA,1698722085
324,selfoss,63.9331,-20.9971,-0.53,79,42,3.81,IS,1698722085
325,crane,31.3974,-102.3501,4.75,48,1,1.98,US,1698721537
326,viedma,-40.8135,-62.9967,5.57,76,0,3.86,AR,1698721244
327,alice springs,-23.7,133.8833,29.75,13,3,6.69,AU,1698721813
328,champerico,14.3,-91.9167,26.76,81,100,0.23,GT,1698721495
329,bac lieu,9.285,105.7244,30.22,70,97,7.57,VN,1698722086
330,chacabuco,-34.6417,-60.4739,11.57,36,60,3.06,AR,1698722086
331,mwingi,-0.9344,38.0601,18.71,93,85,2.37,KE,1698722086
332,shchyolkino,45.4291,35.8223,17.53,86,1,2.2,UA,1698722086
333,deniliquin,-35.5333,144.9667,21.0,17,2,5.11,AU,1698722086
334,vershino-darasunskiy,52.35,115.5167,-5.24,63,100,2.63,RU,1698722086
335,ghanzi,-21.5667,21.7833,18.09,83,6,6.29,BW,1698722086
336,nelson bay,-32.7167,152.15,26.03,49,99,8.49,AU,1698722054
337,pizarro,4.9533,-77.366,25.24,89,100,0.7,CO,1698722087
338,terrell,32.736,-96.2753,8.28,61,0,4.12,US,1698722087
339,fendou,46.65,124.8667,7.21,38,61,3.4,CN,1698722087
340,pangody,65.85,74.4859,-14.15,94,26,2.99,RU,1698721471
341,khandyga,62.6667,135.6,-9.02,93,100,2.09,RU,1698721553
342,port blair,11.6667,92.75,29.02,79,40,3.6,IN,1698721497
343,mbandaka,0.0487,18.2603,22.54,96,100,0.92,CD,1698722087
344,naze,28.3667,129.4833,24.51,65,84,5.22,JP,1698721531
345,waddan,29.1614,16.139,20.25,50,63,3.32,LY,1698722087
346,lethem,3.3803,-59.7968,29.6,50,98,2.98,GY,1698722087
347,bhattiprolu,16.1,80.7833,28.31,80,21,1.79,IN,1698722088
348,usol'ye-sibirskoye,52.7519,103.6453,-1.66,55,100,1.29,RU,1698722088
349,hatillo,18.4863,-66.8254,27.82,92,100,0.45,PR,1698722088
350,mbeya,-8.9,33.45,16.45,81,95,3.72,TZ,1698722088
351,igarka,67.4667,86.5833,-17.1,96,99,1.67,RU,1698721437
352,lazaro cardenas,17.9583,-102.2,26.38,88,13,1.68,MX,1698721493
353,buncrana,55.1333,-7.45,8.33,81,100,7.3,IE,1698722088
354,rincon,32.296,-81.2354,21.03,88,0,2.57,US,1698722088
355,jayapura,-2.5333,140.7,28.66,86,100,4.74,ID,1698722088
356,akrehamn,59.2667,5.1833,3.33,64,90,2.57,NO,1698721554
357,tefe,-3.3542,-64.7114,28.15,61,95,1.53,BR,1698721501
358,mistrato,5.2973,-75.8832,15.15,98,100,0.71,CO,1698722089
359,yangambi,0.8102,24.4336,21.11,98,100,1.21,CD,1698721558
360,bamboo flat,11.7,92.7167,29.05,79,40,3.6,IN,1698721528
361,pervomayskoye,43.919,46.7102,14.12,84,0,6.23,RU,1698722089
362,ranong,9.9658,98.6348,27.96,85,92,3.26,TH,1698722089
363,ketchikan,55.3422,-131.6461,3.99,87,0,1.54,US,1698722089
364,kailua-kona,19.6406,-155.9956,28.46,78,20,5.66,US,1698722073
365,i-n-salah,27.1935,2.4607,28.13,15,43,4.35,DZ,1698722089
366,pacific grove,36.6177,-121.9166,17.58,44,0,2.06,US,1698722064
367,arroio grande,-32.2375,-53.0869,17.86,98,89,4.28,BR,1698721919
368,bubaque,11.2833,-15.8333,28.24,73,72,4.64,GW,1698721495
369,riberalta,-10.9833,-66.1,25.15,70,62,1.15,BO,1698722090
370,taksimo,56.3444,114.8794,-9.32,49,62,0.55,RU,1698721557
371,stettler,52.3168,-112.7186,-1.81,90,100,5.07,CA,1698721805
372,sucua,-2.4667,-78.1667,20.81,96,88,1.49,EC,1698721971
373,sarmanovo,55.2553,52.5891,1.1,99,100,6.26,RU,1698722090
374,mirny,62.5353,113.9611,-19.87,84,20,4.02,RU,1698722034
375,gyeongsan-si,35.8233,128.7378,20.86,37,0,2.57,KR,1698722090
376,kita,13.0349,-9.4895,24.21,59,10,0.76,ML,1698722090
377,sisimiut,66.9395,-53.6735,-1.44,61,84,4.53,GL,1698722090
378,molepolole,-24.4066,25.4951,11.08,76,100,7.38,BW,1698722090
379,chenzhou,25.8,113.0333,25.1,60,17,0.8,CN,1698721842
380,koundara,12.4833,-13.3,23.66,92,85,1.57,GN,1698722091
381,canete,-37.8,-73.4,4.38,93,75,1.69,CL,1698722091
382,kolonia,50.9333,6.95,11.03,87,40,2.57,DE,1698722084
383,changli,39.7042,119.1506,20.04,54,12,3.72,CN,1698722091
384,khorixas,-20.3667,14.9667,16.54,35,0,0.77,NA,1698722091
385,laughlin,35.1678,-114.573,19.71,10,0,11.32,US,1698722091
386,macomer,40.262,8.7699,14.28,90,83,4.28,IT,1698722091
387,correntina,-13.3433,-44.6367,28.12,38,100,1.2,BR,1698722092
388,vorkuta,67.5,64.0,-9.82,95,100,4.33,RU,1698722092
389,namibe,-15.1961,12.1522,17.47,79,0,2.2,AO,1698721406
390,kiunga,-6.1219,141.2906,31.95,56,94,2.12,PG,1698722092
391,isangel,-19.55,169.2667,26.06,61,75,3.6,VU,1698721549
392,wotho,10.1657,166.0102,27.99,79,100,10.13,MH,1698722092
393,san luis,-33.295,-66.3356,11.59,41,94,7.79,AR,1698722092
394,hurricane,37.1753,-113.2899,11.26,22,0,4.9,US,1698722092
395,sarandi del yi,-33.35,-55.6333,11.88,89,100,7.72,UY,1698722092
396,mahuta,-10.8667,39.45,21.2,90,97,0.97,TZ,1698722092
397,nova olimpia,-14.7972,-57.2881,23.98,90,93,1.38,BR,1698722045
398,el granada,37.5027,-122.4694,18.34,42,0,3.6,US,1698722083
399,belyy yar,53.6039,91.3903,-2.06,93,75,0.0,RU,1698721559
400,copala,16.65,-98.9833,25.84,87,34,1.26,MX,1698722093
401,north lakhimpur,27.2333,94.1167,28.05,57,17,1.03,IN,1698722093
402,larache,35.1932,-6.1557,18.04,71,100,3.82,MA,1698722093
403,semporna,4.4818,118.6112,30.01,65,96,0.97,MY,1698722093
404,batangafo,7.3008,18.2833,22.4,78,86,0.63,CF,1698722093
405,sarayonu,38.262,32.4046,8.79,42,100,0.77,TR,1698722093
406,amga,60.8953,131.9608,-9.1,83,100,2.66,RU,1698721503
407,thunder bay,48.4001,-89.3168,-3.01,59,100,2.06,CA,1698721967
408,morehead city,34.7229,-76.726,22.21,88,0,3.6,US,1698722027
409,nadym,65.5333,72.5167,-13.08,92,89,3.55,RU,1698721427
410,yasnyy,51.0333,59.8742,0.01,87,99,6.51,RU,1698722094
411,chitipa,-9.7024,33.2697,18.91,84,99,2.9,MW,1698722094
412,malabar,-33.9667,151.25,32.79,22,0,8.41,AU,1698722094
413,puro,12.4841,123.3827,29.0,72,63,4.53,PH,1698722094
414,hoemul-li,41.4339,129.67,17.3,57,11,2.69,KP,1698722094
415,somerton,32.5964,-114.7097,20.56,14,0,2.57,US,1698721865
416,praia da vitoria,38.7333,-27.0667,19.31,77,40,7.14,PT,1698721529
417,warangal,18.0,79.5833,23.88,73,3,1.22,IN,1698722094
418,yasuj,30.6682,51.588,8.75,66,75,0.0,IR,1698722095
419,boende,-0.2167,20.8667,21.95,99,91,0.67,CD,1698722095
420,taoudenni,22.6783,-3.9836,29.22,11,6,4.33,ML,1698721534
421,winters,38.5249,-121.9708,15.88,47,0,0.0,US,1698722095
422,dakhla,23.6848,-15.958,20.38,87,0,4.57,EH,1698722095
423,kikwit,-5.041,18.8162,21.59,98,100,1.3,CD,1698722095
424,zhangatas,43.5667,69.75,10.89,87,100,7.42,KZ,1698721816
425,loen,7.7601,168.2307,28.74,74,100,8.11,MH,1698722095
426,velizh,55.6056,31.1967,3.37,100,100,1.3,RU,1698722095
427,fort st. john,56.2499,-120.8529,3.94,52,75,2.57,CA,1698721547
428,lautoka,-17.6167,177.4667,31.92,62,40,7.2,FJ,1698722071
429,dergachi,51.2328,48.7659,7.18,80,100,8.39,RU,1698722096
430,meadow lake,34.8014,-106.5436,4.52,69,0,1.51,US,1698722083
431,al bawiti,28.3492,28.8659,19.61,85,9,2.98,EG,1698722096
432,pirenopolis,-15.8525,-48.9592,27.7,38,93,0.83,BR,1698722096
433,whakatane,-37.9585,176.9854,18.76,97,100,3.13,NZ,1698722096
434,pointe-noire,-4.7761,11.8635,25.35,91,100,4.08,CG,1698722096
435,chinsali,-10.5414,32.0816,20.0,63,98,2.28,ZM,1698722096
436,norilsk,69.3535,88.2027,-16.43,95,100,1.39,RU,1698721822
437,embarcacion,-23.209,-64.096,21.9,80,100,3.24,AR,1698722096
438,el calafate,-50.3408,-72.2768,4.21,62,28,0.32,AR,1698722097
439,canmore,51.0834,-115.3521,-3.34,84,52,3.28,CA,1698721891
440,timbuktu,16.7735,-3.0074,28.47,12,90,4.06,ML,1698722097
441,fayzabad,37.1166,70.58,16.54,40,38,1.1,AF,1698722097
442,forest city,28.6668,-81.4433,23.32,90,0,2.57,US,1698722097
443,irtyshsk,53.3333,75.4572,0.62,100,100,1.05,KZ,1698722097
444,totness,5.8833,-56.3167,27.28,85,5,6.26,SR,1698722097
445,edd,13.9297,41.6925,29.88,57,64,5.93,ER,1698722097
446,mata-utu,-13.2816,-176.1745,28.54,75,11,6.35,WF,1698722097
447,retreat,38.8245,-85.8533,2.47,93,0,2.64,US,1698722097
448,ambodifotatra,-16.9833,49.85,25.36,76,17,2.64,MG,1698722039
449,orel,52.9658,36.0803,10.45,77,100,2.33,RU,1698722098
450,stornara,41.2873,15.7698,18.66,52,100,3.25,IT,1698722098
451,kununurra,-15.7667,128.7333,37.11,29,100,2.23,AU,1698721445
452,nouadhibou,20.931,-17.0347,20.99,94,0,6.17,MR,1698721523
453,lodja,-3.4833,23.4333,21.0,99,99,1.27,CD,1698722098
454,zavolzhsk,57.4823,42.1378,0.85,100,100,1.58,RU,1698722098
455,rio grande,-32.035,-52.0986,18.86,95,98,2.77,BR,1698721557
456,egilsstadir,65.2653,-14.3948,-7.05,93,0,1.03,IS,1698722098
457,boundiali,9.5217,-6.4869,22.41,75,10,1.45,CI,1698722099
458,sinabang,2.4803,96.3801,27.09,78,99,1.67,ID,1698721437
459,longboat key,27.4125,-82.659,24.45,75,0,2.57,US,1698722099
460,novodvinsk,64.4165,40.8122,-8.45,97,69,1.95,RU,1698722099
461,ataq,14.5377,46.8319,19.47,76,70,1.99,YE,1698722099
462,st. john's,47.5649,-52.7093,1.27,94,100,2.57,CA,1698722099
463,severo-yeniseyskiy,60.3725,93.0408,-17.46,97,55,0.89,RU,1698721546
464,tuy hoa,13.0833,109.3,26.36,87,100,3.64,VN,1698721547
465,tara,56.8944,74.371,-9.22,88,8,3.86,RU,1698722099
466,taroa,8.7058,171.2275,28.22,80,83,7.82,MH,1698722099
467,pokaran,26.9167,71.9167,27.72,32,18,3.46,IN,1698722100
468,birzebbuga,35.8258,14.5269,24.53,83,0,7.2,MT,1698722100
469,hadibu,12.65,54.0333,26.41,74,98,4.29,YE,1698722100
470,kulmbach,50.1,11.45,12.41,93,100,1.79,DE,1698722100
471,singkil,-7.9855,111.4161,34.25,41,16,2.53,ID,1698722100
472,cromer,52.9312,1.2989,7.13,85,42,2.75,GB,1698722100
473,at taj,24.2049,23.2857,19.01,45,0,3.88,LY,1698722100
474,porto belo,-27.1578,-48.5531,21.65,100,100,2.86,BR,1698722100
475,bansi,27.1833,82.9333,24.2,58,44,1.16,IN,1698722101
476,kalmunai,7.4167,81.8167,27.15,79,96,2.31,LK,1698722101
477,katoro,-3.0203,31.8958,18.38,81,64,1.47,TZ,1698722101
478,ulanhot,46.0833,122.0833,3.73,42,85,5.53,CN,1698721551
479,gongzhuling,43.5008,124.8198,15.02,77,100,9.52,CN,1698722101
480,pagsanghan,11.9657,124.7212,28.24,81,100,1.47,PH,1698722101
481,kapa'a,22.0752,-159.319,27.18,70,75,3.6,US,1698721979
482,batroun,34.2553,35.6581,23.08,61,100,2.02,LB,1698722101
483,idri,27.5,13.2667,20.2,28,3,3.82,LY,1698722102
484,kaa-khem,51.6833,94.7333,-0.33,83,100,1.04,RU,1698722102
485,nuuk,64.1835,-51.7216,10.34,27,100,10.29,GL,1698721534
486,laojunmiao,39.8333,97.7333,12.82,19,53,0.57,CN,1698722103
487,coquimbo,-29.9533,-71.3436,13.85,82,0,1.03,CL,1698721315
488,sant antoni de portmany,38.9807,1.3036,19.65,63,0,4.47,ES,1698722104
489,ikalamavony,-21.15,46.5833,21.64,46,4,1.29,MG,1698722104
490,taupo,-38.6833,176.0833,14.81,91,100,2.14,NZ,1698722104
491,noshiro,40.2039,140.0242,10.46,64,77,2.04,JP,1698721541
492,wagar,16.1525,36.2032,26.15,70,35,4.19,SD,1698722105
493,elko,41.0002,-115.5012,3.13,35,0,1.34,US,1698722105
494,tropea,38.6754,15.8948,20.96,75,81,3.51,IT,1698721815
495,dawson creek,55.7666,-120.2362,3.8,48,20,3.6,CA,1698722106
496,fruita,39.1589,-108.729,2.51,59,0,2.06,US,1698722107
497,marsh harbour,26.5412,-77.0636,26.59,87,5,6.72,BS,1698722108
498,san felipe,10.3399,-68.7425,23.63,96,100,0.57,VE,1698722108
499,taro,-8.3862,115.28,27.0,46,4,2.11,ID,1698722108
500,teguise,29.0605,-13.564,17.12,88,0,1.54,ES,1698722108
501,kuta,-8.7233,115.1723,30.97,74,20,5.66,ID,1698722108
502,aban,56.67,96.06,-7.57,61,87,5.11,RU,1698722109
503,rockton,42.4525,-89.0723,-1.42,75,0,2.57,US,1698722109
504,fundacion,10.5207,-74.185,25.54,8,79,1.61,CO,1698722109
505,bardai,11.65,7.2333,22.77,26,98,3.57,NG,1698721557
506,troitskiy,57.0603,63.7481,-7.17,98,94,0.69,RU,1698721553
507,shimanovsk,52.0,127.7,-2.49,26,100,1.5,RU,1698722109
508,kourou,5.1552,-52.6478,27.03,87,43,3.06,GF,1698722110
509,flin flon,54.7682,-101.865,-10.1,87,12,1.46,CA,1698722110
510,inarajan village,13.2736,144.7484,31.54,87,100,5.46,GU,1698722110
511,korhogo,9.45,-5.6333,23.03,76,9,1.58,CI,1698722111
512,gallup,35.5281,-108.7426,-2.09,34,0,0.0,US,1698722111
513,castillos,-34.1667,-53.8333,13.07,87,100,6.83,UY,1698722071
514,keflavik,64.0049,-22.5624,3.24,75,75,6.17,IS,1698722111
515,poulsbo,47.7359,-122.6465,9.6,85,8,0.45,US,1698722111
516,maxixe,-23.8597,35.3472,19.6,70,100,4.21,MZ,1698722112
517,salumbar,24.1333,74.05,25.07,40,56,0.93,IN,1698722112
518,miri,4.4148,114.0089,29.08,84,40,2.06,MY,1698721558
519,laterza,40.6295,16.7997,20.52,100,75,8.75,IT,1698722112
520,buckeye,33.3703,-112.5838,22.84,22,0,1.99,US,1698722059
521,khovd,48.0056,91.6419,7.84,47,75,2.67,MN,1698721556
522,harrisburg,40.2737,-76.8844,10.55,69,100,4.02,US,1698722056
523,yeed,4.55,43.0333,24.77,77,17,2.04,SO,1698722113
524,bargaal,11.2864,51.0773,26.42,80,93,4.76,SO,1698722113
525,la peca,-5.6111,-78.435,22.26,76,67,0.88,PE,1698722114
526,sao felix do xingu,-6.6447,-51.995,24.61,55,28,0.32,BR,1698722064
527,san luis de la loma,17.2706,-100.8939,26.26,88,38,1.83,MX,1698721548
528,kem',64.9555,34.5793,-6.65,89,14,3.56,RU,1698722114
529,ta`u,-14.2336,-169.5144,26.97,78,30,10.53,AS,1698722115
530,nyurba,63.2842,118.3319,-13.63,93,99,1.22,RU,1698722115
531,beira,-19.8436,34.8389,20.05,100,100,4.63,MZ,1698722115
532,jamshedpur,22.8,86.1833,24.9,69,1,1.54,IN,1698721909
533,barranca,-10.75,-77.7667,18.89,88,82,2.89,PE,1698722116
534,pont rouge,48.8833,-72.0825,-0.21,87,38,4.3,CA,1698721556
535,dunay,42.8803,132.3375,13.27,85,91,4.79,RU,1698722116
536,lycksele,64.5954,18.6735,-8.07,93,100,2.06,SE,1698722116
537,altay,47.8667,88.1167,6.49,92,100,1.55,CN,1698722117
538,lengshuijiang,27.6881,111.4294,24.79,47,49,1.16,CN,1698722117
539,yallahs,17.8748,-76.5624,27.85,81,100,1.09,JM,1698722117
540,dali,25.7,100.1833,19.07,55,53,0.23,CN,1698721843
541,casino,-28.8667,153.05,34.2,15,1,5.88,AU,1698722117
542,verkhniy tagil,57.3733,59.9556,-7.23,97,97,0.83,RU,1698722117
543,kalabo,-14.97,22.6814,20.77,78,97,2.45,ZM,1698722118
544,shangqiu,34.45,115.65,26.78,32,3,6.9,CN,1698722118
545,surgut,61.25,73.4167,-11.9,78,40,4.02,RU,1698721979
546,leava,-14.3,-178.1667,28.13,79,21,4.94,WF,1698722119
547,undurkhaan,47.3194,110.6556,-2.61,79,100,3.08,MN,1698722119
548,maintirano,-18.0667,44.0167,25.16,75,61,3.98,MG,1698722119
549,buta,2.7858,24.73,21.24,97,90,0.2,CD,1698722119
550,urangan,-25.3,152.9,23.03,69,0,8.34,AU,1698722120
551,mirganj,28.55,79.2,22.78,50,6,1.23,IN,1698722120
552,sokoni,-6.4333,39.55,26.33,76,43,5.31,TZ,1698722120
553,agat village,13.3886,144.6585,31.52,79,75,6.17,GU,1698722120
554,taganrog,47.2362,38.8969,13.92,73,92,2.0,RU,1698722121
555,sanctuary point,-35.1114,150.629,22.21,41,0,6.66,AU,1698722121
556,salavan,15.7167,106.4167,29.5,62,62,1.06,LA,1698722121
557,laza,46.65,27.5833,10.79,73,4,3.28,RO,1698722121
558,ascension,30.2169,-90.9001,12.78,80,100,4.12,US,1698722122
559,olyokminsk,60.3736,120.4264,-6.78,51,100,1.54,RU,1698722122
560,blantyre,-15.785,35.0085,18.18,84,100,2.6,MW,1698722122
561,irece,-11.3042,-41.8558,25.32,32,56,2.79,BR,1698721916
562,ibimirim,-8.5406,-37.6903,20.29,80,97,2.14,BR,1698722123
563,kidal,18.4411,1.4078,25.78,13,0,5.38,ML,1698722123
564,manta,-0.95,-80.7333,25.88,73,40,4.12,EC,1698722123
565,kavieng,-2.5744,150.7967,27.65,75,87,4.25,PG,1698722124
566,buinsk,54.95,48.2833,3.59,100,100,2.64,RU,1698722124
567,vargashi,55.3556,65.8467,-10.5,97,95,2.41,RU,1698722124
568,nizhnyaya salda,58.0776,60.7202,-4.78,96,100,1.16,RU,1698722124
569,uzyn,49.8262,30.4149,11.08,68,79,3.29,UA,1698722125
570,prince rupert,54.3161,-130.3201,6.83,81,0,2.57,CA,1698721549
571,villa gesell,-37.2639,-56.973,11.7,59,33,5.28,AR,1698722125
572,sorsk,54.0033,90.2467,-4.27,93,100,0.81,RU,1698722125
573,tomatlan,19.9333,-105.25,25.16,86,89,1.13,MX,1698722125
574,lowestoft,52.4752,1.7516,7.79,95,39,2.81,GB,1698722126
575,atherton,53.5237,-2.4935,9.05,94,100,1.34,GB,1698722126
576,holualoa,19.6228,-155.9522,26.39,78,20,5.66,US,1698722059
577,lesparre-medoc,45.3,-0.9333,14.39,84,62,8.6,FR,1698722126
578,zouerate,22.7187,-12.4521,26.67,17,0,2.46,MR,1698721985
579,ningbo,29.8782,121.5495,24.99,53,20,2.0,CN,1698722126
580,santa maria maddalena,44.8957,11.6084,19.0,90,17,1.79,IT,1698722127
581,khilok,51.3674,110.4676,-0.61,47,78,1.22,RU,1698722066
582,fada,9.5667,8.3,22.43,56,100,0.7,NG,1698722127
583,san juan de miraflores,-12.1629,-76.9635,20.09,80,100,2.97,PE,1698722127
584,ugoofaaru,5.6667,73.0,27.66,73,98,2.05,MV,1698722127
585,kargasok,59.0556,80.8572,-10.58,93,6,3.58,RU,1698722127
586,griffith,41.5284,-87.4237,1.05,64,0,2.06,US,1698722109
587,puerto deseado,-47.7503,-65.8938,4.09,59,17,5.31,AR,1698722128
588,khanty-mansiysk,61.0042,69.0019,-10.94,85,40,3.13,RU,1698722055
589,letlhakeng,-24.0944,25.0298,11.44,78,79,7.37,BW,1698722128
590,satita,34.8184,36.1138,23.18,44,100,1.89,SY,1698722128
591,tongliao,43.6125,122.2653,13.36,27,86,7.67,CN,1698721864
